[
  {"name":"Даурский заповедник","country":"Россия","region":"Забайкальский край","lat":50.3000,"lng":115.8000},
  {"name":"Саяно-Шушенский заповедник","country":"Россия","region":"Красноярский край","lat":52.1000,"lng":91.5000},
  {"name":"Сайлюгемский национальный парк","country":"Россия","region":"Республика Алтай","lat":49.8500,"lng":88.2500},
  {"name":"Алтайский заповедник","country":"Россия","region":"Республика Алтай","lat":51.5000,"lng":87.6000},
  {"name":"Сохондинский заповедник","country":"Россия","region":"Забайкальский край","lat":49.6000,"lng":111.0000},
  {"name":"Национальный парк «Алханай»","country":"Россия","region":"Забайкальский край","lat":50.9000,"lng":113.4000},

  {"name":"Заповедник «Убсунурская котловина»","country":"Россия","region":"Республика Тыва","lat":50.2500,"lng":92.1000},
  {"name":"Федеральный заказник «Долина дзерена»","country":"Россия","region":"Забайкальский край","lat":50.6000,"lng":115.6000},
  {"name":"Тункинский национальный парк","country":"Россия","region":"Республика Бурятия","lat":51.7000,"lng":102.5000}
]
