[
  {"name":"Московский зоопарк","country":"Россия","region":"Москва","lat":55.7608,"lng":37.5776},
  {"name":"Ленинградский зоопарк","country":"Россия","region":"Санкт-Петербург","lat":59.9489,"lng":30.2638},
  {"name":"Барнаульский зоопарк «Лесная сказка»","country":"Россия","region":"Барнаул","lat":53.3479,"lng":83.7798},
  {"name":"Новосибирский зоопарк","country":"Россия","region":"Новосибирск","lat":55.0492,"lng":82.9347},
  {"name":"Зоопарк Удмуртии","country":"Россия","region":"Ижевск","lat":56.8526,"lng":53.2048},
  {"name":"Зоопарк Таллинна","country":"Эстония","region":"Таллин","lat":59.4269,"lng":24.6579},

  {"name":"Парк флоры и фауны «Роев ручей»","country":"Россия","region":"Красноярск","lat":56.0106,"lng":92.8641},
  {"name":"Пермский зоопарк","country":"Россия","region":"Пермь","lat":58.0070,"lng":56.2396},
  {"name":"Челябинский зоопарк","country":"Россия","region":"Челябинск","lat":55.1646,"lng":61.3760},
  {"name":"Екатеринбургский зоопарк","country":"Россия","region":"Екатеринбург","lat":56.8390,"lng":60.6140},
  {"name":"Иркутский зоопарк","country":"Россия","region":"Иркутск","lat":52.2869,"lng":104.3050},
  {"name":"Абаканский зоопарк","country":"Россия","region":"Абакан","lat":53.7200,"lng":91.4420},

  {"name":"Tierpark Berlin (Берлин)","country":"Германия","region":"Берлин","lat":52.4929,"lng":13.5273},
  {"name":"Zoo Praha (Пражский зоопарк)","country":"Чехия","region":"Прага","lat":50.1164,"lng":14.4114},
  {"name":"Tierpark Hellabrunn (Мюнхен)","country":"Германия","region":"Мюнхен","lat":48.0888,"lng":11.5496},
  {"name":"Korkeasaari Zoo (Хельсинки)","country":"Финляндия","region":"Хельсинки","lat":60.1766,"lng":24.9871}
]